[
  {
    "name": "호수매운탕",
    "address": "충남 천안시 서북구 성성2길 61 미도락",
    "link": "https://map.naver.com/p/search/어죽/place/21406799?c=13.00,0,0,0,dh&placePath=?entry%3Dbmp",
    "recommendation": "어죽 (조금 매움) / 새우전 추천",
    "categories": [
      "한식"
    ],
    "lat": 36.8150283,
    "lng": 127.1140654
  },
  {
    "name": "동원정",
    "address": "충남 천안시 동남구 서부대로 541 동원정",
    "link": "https://map.naver.com/p/entry/place/17209796?c=13.13,0,0,0,dh",
    "recommendation": "누룽지 백숙",
    "categories": [
      "한식"
    ],
    "lat": 36.8154399,
    "lng": 127.1297426
  },
  {
    "name": "이고집만두",
    "address": "충남 천안시 동남구 태조산길 258",
    "link": "https://map.naver.com/p/entry/place/33793005?c=13.13,0,0,0,dh",
    "recommendation": "만두 샤브 전골",
    "categories": [
      "한식"
    ],
    "lat": 36.8142118,
    "lng": 127.177366
  },
  {
    "name": "명장 복집",
    "address": "충남 천안시 서북구 두정로 98 재호빌딩",
    "link": "https://map.naver.com/p/entry/place/32836774?c=13.13,0,0,0,dh&placePath=/home",
    "recommendation": "복어 코스",
    "categories": [
      "한식"
    ],
    "lat": 36.8337417,
    "lng": 127.1277796
  },
  {
    "name": "꽃비본점",
    "address": "충남 천안시 서북구 노태산로 86 2층",
    "link": "https://map.naver.com/p/entry/place/20189075?c=15.00,0,0,0,dh",
    "recommendation": "다랑어, 일식 코스",
    "categories": [
      "일식",
      "데이트"
    ],
    "lat": 36.8259374,
    "lng": 127.1272728
  },
  {
    "name": "메이탄 천안점",
    "address": "충남 천안시 서북구 다가말3길 2 2층",
    "link": "https://map.naver.com/p/entry/place/32679827?c=15.00,0,0,0,dh",
    "recommendation": "쌍용동에서 알려진 중식집",
    "categories": [
      "중식"
    ],
    "lat": 36.7980461,
    "lng": 127.1334398
  },
  {
    "name": "짬뽕지존 본점",
    "address": "충남 천안시 서북구 서부대로 719",
    "link": "https://map.naver.com/p/entry/place/20685508?c=15.00,0,0,0,dh",
    "recommendation": "충청권 체인 다수",
    "categories": [
      "중식"
    ],
    "lat": 36.8313623,
    "lng": 127.1330985
  },
  {
    "name": "불티나통닭 본점",
    "address": "충남 천안시 동남구 원성17길 22",
    "link": "https://map.naver.com/p/entry/place/38510928?c=15.00,0,0,0,dh",
    "recommendation": "동네 통닭 맛집",
    "categories": [
      "한식",
      "술안주"
    ],
    "lat": 36.8095516,
    "lng": 127.1603771
  },
  {
    "name": "갈재산장",
    "address": "충남 천안시 동남구 광덕면 해수길 348",
    "link": "https://map.naver.com/p/entry/place/1771594671?c=15.00,0,0,0,dh",
    "recommendation": "계곡에서 먹는 능이 백숙",
    "categories": [
      "한식"
    ],
    "lat": 36.8150283,
    "lng": 127.1140654
  },
  {
    "name": "덩더궁",
    "address": "충남 천안시 서북구 백석로 11-7",
    "link": "https://map.naver.com/p/entry/place/30995125?c=15.00,0,0,0,dh",
    "recommendation": "갈비 맛집",
    "categories": [
      "한식"
    ],
    "lat": 36.8203785,
    "lng": 127.1277714
  },
  {
    "name": "수레터 김치찌개",
    "address": "충남 천안시 서북구 2공단1로 62 수레터",
    "link": "https://map.naver.com/p/search/수레터 김치찌개/place/17310225?c=15.00,0,0,0,dh&isCorrectAnswer=true",
    "recommendation": "김치찌개 단품",
    "categories": [
      "한식"
    ],
    "lat": 36.8150283,
    "lng": 127.1140654
  },
  {
    "name": "원조곱창",
    "address": "충남 천안시 서북구 미라3길 42 유량생태",
    "link": "https://map.naver.com/p/entry/place/17390222?c=15.00,0,0,0,dh",
    "recommendation": "전골과 구이 둘다 좋은 선택이라고함",
    "categories": [
      "한식",
      "데이트"
    ],
    "lat": 36.8150283,
    "lng": 127.1140654
  },
  {
    "name": "이정민갈비탕본점",
    "address": "충남 천안시 서북구 백석3로 29",
    "link": "https://map.naver.com/p/entry/place/1007739072?c=15.00,0,0,0,dh",
    "recommendation": "백석동 동네 맛집",
    "categories": [
      "한식"
    ],
    "lat": 36.821146,
    "lng": 127.1191337
  },
  {
    "name": "팔팔문어낙지볶음",
    "address": "충남 천안시 서북구 성성2길 52-1 2층",
    "link": "https://map.naver.com/p/entry/place/35513895?c=15.00,0,0,0,dh",
    "recommendation": "조금 칼칼함 (매움)",
    "categories": [
      "한식"
    ],
    "lat": 36.8492888,
    "lng": 127.1285597
  },
  {
    "name": "광시한우곱창",
    "address": "충남 천안시 서북구 오성로 83",
    "link": "https://map.naver.com/p/entry/place/21419635?c=15.00,0,0,0,dh",
    "recommendation": "곱창 구이 + 볶음밥",
    "categories": [
      "한식"
    ],
    "lat": 36.8304202,
    "lng": 127.1309951
  },
  {
    "name": "본가장수촌 천안성성점",
    "address": "충남 천안시 서북구 공단로 68",
    "link": "https://map.naver.com/p/entry/place/35940419?c=15.00,0,0,0,dh",
    "recommendation": "고소한 누룽지 삼계탕",
    "categories": [
      "한식"
    ],
    "lat": 36.8449757,
    "lng": 127.1244527
  },
  {
    "name": "경복궁 천안점",
    "address": "충남 천안시 서북구 성정중7길 9",
    "link": "https://map.naver.com/p/search/천안 경복궁/place/1453520657?c=15.00,0,0,0,dh&placePath=?entry%3Dbmp",
    "recommendation": "가족 모임하기 좋은 고깃집",
    "categories": [
      "한식"
    ],
    "lat": 36.8288832,
    "lng": 127.1341856
  },
  {
    "name": "성환뚝배기해장국",
    "address": "충남 천안시 서북구 성환읍 성환1로 272-8",
    "link": "https://map.naver.com/p/entry/place/37130801?placePath=/home&c=11.96,0,0,0,dh",
    "recommendation": "애객러 정예인님 추천 해장국 맛집",
    "categories": [
      "한식"
    ],
    "lat": 36.9021523,
    "lng": 127.1305546
  },
  {
    "name": "성환두번째집",
    "address": "충남 천안시 서북구 성환읍 성환1로 293",
    "link": "https://map.naver.com/p/search/성환두번째집/place/93652678?c=15.00,0,0,0,dh&isCorrectAnswer=true",
    "recommendation": "애객러 떡도리탕님 추천 순대국밥 맛집",
    "categories": [
      "한식"
    ],
    "lat": 36.9021523,
    "lng": 127.1305546
  },
  {
    "name": "등촌샤브칼국수두정점",
    "address": "충남 천안시 서북구 두정로 132",
    "link": "https://map.naver.com/p/search/등촌샤브칼국수두정점/place/32001547?c=15.00,0,0,0,dh&isCorrectAnswer=true",
    "recommendation": "애객러 집요정님 추천 칼국수 맛집",
    "categories": [
      "한식"
    ],
    "lat": 36.833649,
    "lng": 127.1314867
  },
  {
    "name": "추태숙국밥",
    "address": "충남 천안시 서북구 오성5길 6 1층",
    "link": "https://map.naver.com/p/search/추태숙국밥/place/1005258147?c=15.00,0,0,0,dh&isCorrectAnswer=true",
    "recommendation": "애객러 집요정님 추천 도가니탕 맛집",
    "categories": [
      "한식",
      "단체",
      "술안주"
    ],
    "lat": 36.8308342,
    "lng": 127.1287607
  },
  {
    "name": "마니국밥 본점",
    "address": "충남 천안시 서북구 직산읍 상덕로 185",
    "link": "https://map.naver.com/p/entry/place/38231567?c=15.00,0,0,0,dh",
    "recommendation": "애객러 네모대가리님 추천 순대국밥 맛집",
    "categories": [
      "한식"
    ],
    "lat": 36.8816237,
    "lng": 127.123089
  },
  {
    "name": "미미제면소",
    "address": "충남 천안시 서북구 성정4길 11 1동 8호",
    "link": "https://map.naver.com/p/entry/place/1331431705?c=15.00,0,0,0,dh&placePath=/home",
    "recommendation": "애객러 김간호사님 추천 만두 맛집",
    "categories": [
      "한식"
    ],
    "lat": 36.8150283,
    "lng": 127.1140654
  },
  {
    "name": "청화집",
    "address": "충남 천안시 동남구 병천면 충절로 1749",
    "link": "https://map.naver.com/p/entry/place/11711553?c=15.44,0,0,0,dh",
    "recommendation": "애객러 무릎어깨님 추천 순대국 맛집",
    "categories": [
      "한식"
    ],
    "lat": 36.7633578,
    "lng": 127.3072744
  },
  {
    "name": "그니식당",
    "address": "충남 천안시 서북구 불당32길 3-10",
    "link": "https://map.naver.com/p/entry/place/1553886595?c=15.44,0,0,0,dh",
    "recommendation": "애객러 무릎어깨님 추천 어복쟁반, 냉면 맛집",
    "categories": [
      "한식"
    ],
    "lat": 36.8150283,
    "lng": 127.1140654
  },
  {
    "name": "병천반점",
    "address": "천안시 동남구 병천면 아우내순대길 38 지하 1층",
    "link": "https://map.naver.com/p/search/천안 병천반점/place/34440111?c=15.00,0,0,0,dh&isCorrectAnswer=true",
    "recommendation": "애객러 바이올린 해장국님 추천 탕수육 맛집",
    "categories": [
      "중식"
    ],
    "lat": 36.8067134,
    "lng": 127.1516634
  },
  {
    "name": "태선족발",
    "address": "충남 천안시 동남구 병천면 병천1로 82 1층",
    "link": "https://map.naver.com/p/entry/place/1845194840?c=15.00,0,0,0,dh",
    "recommendation": "애객러 바이올린 해장국님 추천 족발 맛집",
    "categories": [
      "한식"
    ],
    "lat": 36.7600757,
    "lng": 127.2936172
  },
  {
    "name": "평양냉면",
    "address": "충남 천안시 동남구 큰시장길 27",
    "link": "https://map.naver.com/p/search/충청남도 천안시 동남구 사직동 168-8/place/13488160?c=10.00,0,0,0,dh&isCorrectAnswer=true",
    "recommendation": "애객러 바이올린 해장국님 추천 평양냉면 맛집",
    "categories": [
      "한식"
    ],
    "lat": 36.801933,
    "lng": 127.1499628
  },
  {
    "name": "시골손두부",
    "address": "충남 천안시 동남구 북면 충절로 1308",
    "link": "https://map.naver.com/p/search/시골순두부 천안/place/1142448843?c=15.01,0,0,0,dh",
    "recommendation": "애객러 김간호사님 추천 맛집",
    "categories": [
      "한식"
    ],
    "lat": 36.8150283,
    "lng": 127.1140654
  },
  {
    "name": "이고집만두",
    "address": "충남 천안시 동남구 태조산길 258",
    "link": "https://map.naver.com/p/entry/place/33793005?c=15.00,0,0,2,dh",
    "recommendation": "애객러 개간지님 추천 만두 전골 맛집",
    "categories": [],
    "lat": 36.8142118,
    "lng": 127.177366
  },
  {
    "name": "엄가네 본가 시골집",
    "address": "충남 천안시 서북구 봉정로 168-3",
    "link": "https://map.naver.com/p/entry/place/12930070?c=15.00,0,0,0,dh&placePath=/home?from=map&fromPanelNum=1&additionalHeight=76&timestamp=202506041628&locale=ko&svcName=map_pcv5",
    "recommendation": "애객러  Gagaa님 추천 해장국 맛집",
    "categories": [
      "한식"
    ],
    "lat": 36.8218408,
    "lng": 127.1437187
  },
  {
    "name": "봉명치킨",
    "address": "충남 천안시 동남구 봉정로 34",
    "link": "https://map.naver.com/p/entry/place/17209916?c=15.00,0,0,0,dh&placePath=/home?from=map&fromPanelNum=1&additionalHeight=76&timestamp=202506041630&locale=ko&svcName=map_pcv5",
    "recommendation": "애객러  Gagaa님 추천 치킨 맛집",
    "categories": [
      "한식",
      "술안주"
    ],
    "lat": 36.8086478,
    "lng": 127.1404174
  },
  {
    "name": "나무향기",
    "address": "충남 천안시 서북구 직산읍 금곡로 290-111",
    "link": "https://map.naver.com/p/entry/place/19560888?c=15.00,0,0,0,dh&placePath=/home?from=map&fromPanelNum=1&additionalHeight=76&timestamp=202506041631&locale=ko&svcName=map_pcv5",
    "recommendation": "애객러  Gagaa님 추천 게장 맛집",
    "categories": [
      "한식"
    ],
    "lat": 36.8846058,
    "lng": 127.1067672
  },
  {
    "name": "백운동해매운탕",
    "address": "충남 천안시 서북구 입장면 입장시장2길 8-1 1층",
    "link": "https://map.naver.com/p/entry/place/37540271?c=15.00,0,0,0,dh&placePath=/home?from=map&fromPanelNum=1&additionalHeight=76&timestamp=202510101551&locale=ko&svcName=map_pcv5",
    "recommendation": "EXPERT님 추천 매운탕 맛집",
    "categories": [
      "한식"
    ],
    "lat": 36.914856,
    "lng": 127.2261667
  }
]